{
  "totalPages": 5,
  "currentPage": 1,
  "restaurants": [
    {
      "id": 72253,
      "name": "绿茵阁",
      "address": "仅售95元，价值100元代金券！可使用包间，免费WiFi！",
      "city": "广州市天河区",
      "state": "HI",
      "area": "Hawaii",
      "postal_code": "96740",
      "country": "US",
      "phone": "8083258000x",
      "lat": null,
      "lng": null,
      "price": null,
      "reserve_url": "http://www.opentable.com/single.aspx?rid=72253",
      "mobile_reserve_url": "http://mobile.opentable.com/opentable/?restId=72253",
      "image_url": "images/ct1.jpg"
    },
    {
      "id": 49108,
      "name": "纽约餐吧",
      "address": "仅售168元，价值200元代金券！免费WiFi！",
      "city": "广州天河",
      "state": "HI",
      "area": "Hawaii",
      "postal_code": "96816",
      "country": "US",
      "phone": "8087329469",
      "lat": null,
      "lng": null,
      "price": null,
      "reserve_url": "http://www.opentable.com/single.aspx?rid=49108",
      "mobile_reserve_url": "http://mobile.opentable.com/opentable/?restId=49108",
      "image_url": "images/ct2.jpg"
    },
    {
      "id": 92827,
      "name": "牛皇叔牛扒专家",
      "address": "仅售45元，价值88元万达店牛皇叔牛扒专家单人套餐！节假日通用，提供免费WiFi、停车位！",
      "city": "广州天河",
      "state": "HI",
      "area": "Hawaii",
      "postal_code": "96813",
      "country": "US",
      "phone": "8085365353x",
      "lat": null,
      "lng": null,
      "price": null,
      "reserve_url": "http://www.opentable.com/single.aspx?rid=92827",
      "mobile_reserve_url": "http://mobile.opentable.com/opentable/?restId=92827",
      "image_url": "images/ct3.jpg"
    },
    {
      "id": 39541,
      "name": "點都德（聚福楼）",
      "address": "回眸至爱艇仔粥，十指含香给客盛。仅售88元！价值100元的代金券1张，全场通用，可叠加使用，可免费使用包间，全天不间断茶市，地道的西关人饮杯茶食个包嘅人民文化，快D尼试下啦。",
      "city": "广州天河",
      "state": "HI",
      "area": "Hawaii",
      "postal_code": "96826",
      "country": "US",
      "phone": "8089492526x",
      "lat": null,
      "lng": null,
      "price": null,
      "reserve_url": "http://www.opentable.com/single.aspx?rid=39541",
      "mobile_reserve_url": "http://mobile.opentable.com/opentable/?restId=39541",
      "image_url": "images/ct4.jpg"
    },
    {
      "id": 102163,
      "name": "喜鹊茶餐厅",
      "address": "仅售38元！价值62元的喜鹊茶餐厅双人餐，一盅两件，粤式精品，享老广美味。",
      "city": "广州天河",
      "state": "HI",
      "area": "Hawaii",
      "postal_code": "96817",
      "country": "US",
      "phone": "8085455959",
      "lat": null,
      "lng": null,
      "price": null,
      "reserve_url": "http://www.opentable.com/single.aspx?rid=102163",
      "mobile_reserve_url": "http://mobile.opentable.com/opentable/?restId=102163",
      "image_url": "images/ct5.jpg"
    },
    {
      "id": 76030,
      "name": "兰桂坊粤泰美食",
      "address": "仅售348元！最高价值437.8元的兰桂坊4人套餐，提供免费WiFi。",
      "city": "广州天河",
      "state": "HI",
      "area": "Hawaii",
      "postal_code": "96756",
      "country": "US",
      "phone": "8086341499x",
      "lat": null,
      "lng": null,
      "price": null,
      "reserve_url": "http://www.opentable.com/single.aspx?rid=76030",
      "mobile_reserve_url": "http://mobile.opentable.com/opentable/?restId=76030",
      "image_url": "images/ct6.jpg"
    },
    {
      "id": 13885,
      "name": "风帆西餐厅",
      "address": "仅售85元！价值100元的代金券1张，除工作餐、各类宴会、婚宴、会议场租、特惠套餐及团购套餐外全场通用，可叠加使用，提供免费WiFi。",
      "city": "广州天河",
      "state": "HI",
      "area": "Hawaii",
      "postal_code": "96707",
      "country": "US",
      "phone": "8086790079x",
      "lat": null,
      "lng": null,
      "price": null,
      "reserve_url": "http://www.opentable.com/single.aspx?rid=13885",
      "mobile_reserve_url": "http://mobile.opentable.com/opentable/?restId=13885",
      "image_url": "images/ct7.jpg"
    },
    {
      "id": 28060,
      "name": "GOOD day牛排简餐",
      "address": "仅售29元！最高价值43元的牛排单人套，提供免费WiFi。",
      "city": "广州天河",
      "state": "HI",
      "area": "Hawaii",
      "postal_code": "96815",
      "country": "US",
      "phone": "8089317440x",
      "lat": null,
      "lng": null,
      "price": null,
      "reserve_url": "http://www.opentable.com/single.aspx?rid=28060",
      "mobile_reserve_url": "http://mobile.opentable.com/opentable/?restId=28060",
      "image_url": "images/ct8.jpg"
    },
    {
      "id": 87352,
      "name": "万岁寿司",
      "address": "仅售78元，价值100元代金券！传统日式美味，口味独到，经典美味！多种精致美食，口口香浓，绝佳美食体验！美味寿司，精心烹制，免费停车，免费WiFi！",
      "city": "广州天河",
      "state": "HI",
      "area": "Hawaii",
      "postal_code": "96712",
      "country": "US",
      "phone": "8087444125",
      "lat": null,
      "lng": null,
      "price": null,
      "reserve_url": "http://www.opentable.com/single.aspx?rid=87352",
      "mobile_reserve_url": "http://mobile.opentable.com/opentable/?restId=87352",
      "image_url": "images/ct9.jpg"
    },
    {
      "id": 56422,
      "name": "迷恋披萨",
      "address": "仅售68元，最高价值112元 披萨双人餐！节假日通用！",
      "city": "广州天河",
      "state": "HI",
      "area": "Hawaii",
      "postal_code": "96734",
      "country": "US",
      "phone": "8082627555",
      "lat": null,
      "lng": null,
      "price": null,
      "reserve_url": "http://www.opentable.com/single.aspx?rid=56422",
      "mobile_reserve_url": "http://mobile.opentable.com/opentable/?restId=56422",
      "image_url": "images/ct10.jpg"
    }
  ]
}